ID,name,city,latitude,longitude
PLANT1,Northgate Refinery,Mathura,27.492400,77.673700
PLANT2,Riverside Refinery,Panipat,29.390900,76.963500
PLANT3,Eastfield Refinery,Barauni,25.470600,86.012500
PLANT4,Western Refinery,Vadodara,22.307200,73.181200
PLANT5,Southern Refinery,Haldia,22.066700,88.083300
