ID,name,city,latitude,longitude
P001,IOCL Panipat Refinery,Panipat,29.387200,76.975300
P002,IOCL Mathura Refinery,Mathura,27.492800,77.673500
P003,IOCL Barauni Refinery,Begusarai,25.460100,86.066400
P004,IOCL Gujarat Refinery,Vadodara,22.300900,73.161000
P005,IOCL Haldia Refinery,Haldia,22.025200,88.068200
